,주민센터,주소,위도,경도
0,청운효자동 주민센터,서울특별시 종로구 자하문로 92,37.5840835,126.9706357
1,사직동 주민센터,서울특별시 종로구 사직로9길 1,37.576191449999996,126.96882915
2,종로1-4가동 주민센터,서울특별시 종로구 종로17길 8,37.5707276,126.9889123
3,삼청동 주민센터,서울특별시 종로구 삼청로 107,37.5849793,126.98178162729107
4,가회동 주민센터,서울특별시 종로구 북촌로 35,37.58002545,126.98480464831948
5,종로5-6가동 주민센터,서울특별시 종로구 종로35가길 19,37.5720378,127.0050662
6,이화동 주민센터,서울특별시 종로구 이화장길 33,37.57697485,127.00431642115672
7,혜화동 주민센터,서울특별시 종로구 혜화로 12,37.586829,127.0006022
8,창신1동 주민센터,서울특별시 종로구 지봉로 8-6,37.5795738,127.0152701
9,창신2동 주민센터,서울특별시 종로구 창신길 62,37.5727054,127.0107733
10,창신3동 주민센터,서울특별시 종로구 지봉로 87,37.5795738,127.0152701
11,숭인1동 주민센터,서울특별시 종로구 지봉로 86,37.5795738,127.0152701
12,숭인2동 주민센터,서울특별시 종로구 종로65길 10,37.5753495,127.0198525
13,교남동 주민센터,서울특별시 종로구 송월길 154,37.5718765,126.96194049986487
14,평창동 주민센터,서울특별시 종로구 평창문화로 65,37.6063535,126.96830056258561
15,부암동 주민센터,서울특별시 종로구 창의문로 145,37.5928744,126.9643098
16,무악동 주민센터,서울특별시 종로구 통일로14길 36,37.5749571,126.9580276
17,소공동 주민센터,서울특별시 중구 남대문로1길 31-5,37.5629075,126.977303
18,회현동 주민센터,서울특별시 중구 퇴계로8길 46,37.557318,126.97929
19,명동 주민센터,서울특별시 중구 퇴계로20길 3,37.5600403,126.98584414969244
20,필동 주민센터,서울특별시 중구 퇴계로36길 42,37.5604895,126.9947912
21,장충동 주민센터,서울특별시 중구 장충단로8길 22,37.561904,127.007731
22,광희동 주민센터,서울특별시 중구 퇴계로 303-9,37.561279,126.9899418
23,을지로동 주민센터,서울특별시 중구 충무로9길 19,37.566884,126.9919783
24,다산동 주민센터,서울특별시 중구 동호로15길 50,37.5543101,127.0083037
25,동화동 주민센터,서울특별시 중구 다산로36길 100,37.558765,127.019755
26,신당5동 주민센터,서울특별시 중구 다산로44길 85,37.5650724,127.0218508
27,신당동 주민센터,서울특별시 중구 다산로 211,37.567665,127.0160853
28,약수동 주민센터,서울특별시 중구 다산로 92,37.552466,127.0090055
29,청구동 주민센터,서울특별시 중구 청구로3길 55,37.5570674,127.0147029
30,황학동 주민센터,서울특별시 중구 난계로11길 52,37.567445899999996,127.02136931543671
31,중림동 주민센터,서울특별시 중구 서소문로6길 16,37.5596724,126.9666088
32,후암동 주민센터,서울특별시 용산구 후암로 32-6,37.5496447,126.9774587
33,용산2가동 주민센터,서울특별시 용산구 신흥로 90,37.546128,126.9855719
34,남영동 주민센터,서울특별시 용산구 두텁바위로 25,37.54574635,126.97482852424046
35,청파동 주민센터,서울특별시 용산구 청파로49길 6,37.5453328,126.9674888
36,원효로2동 주민센터,서울특별시 용산구 효창원로8길 3,37.5338578,126.9518669
37,효창동 주민센터,서울특별시 용산구 효창원로 161,37.542463749999996,126.96188849712505
38,용문동 주민센터,서울특별시 용산구 새창로12길 13,37.5378177,126.9562536
39,원효로1동 주민센터,서울특별시 용산구 백범로 350,37.5372658,126.9677293
40,한강로동 주민센터,서울특별시 용산구 한강대로38길 28,37.5281196,126.96920037042088
41,이촌1동 주민센터,서울특별시 용산구 이촌로71길 24,37.5211598,126.9728621
42,이촌2동 주민센터,서울특별시 용산구 이촌로18길 20,37.526192,126.9551755
43,이태원1동 주민센터,서울특별시 용산구 보광로 104-6,37.5330546,126.9944068
44,이태원2동 주민센터,서울특별시 용산구 회나무로13길 58,37.5416891,126.9906339
45,한남동 주민센터,서울특별시 용산구 대사관로5길 1,37.53462385,127.00051606674438
46,서빙고동 주민센터,서울특별시 용산구 서빙고로 279,37.5198,126.9829
47,보광동 주민센터,서울특별시 용산구 장문로 95,37.5290252,126.9920025
48,왕십리도선동 주민센터,서울특별시 성동구 마장로 141,37.5679442,127.02558978213858
49,왕십리2동 주민센터,서울특별시 성동구 무학봉길 69,37.5620869,127.0319789
50,마장동 주민센터,서울특별시 성동구 마장로42길 11,37.56588,127.04575
51,사근동 주민센터,서울특별시 성동구 사근동길 45-8,37.5609,127.04555
52,행당1동 주민센터,서울특별시 성동구 고산자로10길 18,37.5585385,127.0365353
53,행당2동 주민센터,서울특별시 성동구 행당로9길 9,37.558229,127.0293506
54,응봉동 주민센터,서울특별시 성동구 독서당로 424,37.54348,127.01389
55,금호1가동 주민센터,서울특별시 성동구 행당로 15,37.5582245,127.0325932
56,금호2-3가동 주민센터,서울특별시 성동구 무수막18길 1,37.552556,127.0221257
57,금호4가동 주민센터,서울특별시 성동구 독서당로46길 26,37.5467287,127.0204442
58,옥수동 주민센터,서울특별시 성동구 독서당로 205-1,37.54348,127.01389
59,성수1가1동 주민센터,서울특별시 성동구 뚝섬로3길 18,37.542067,127.0496432
60,성수1가2동 주민센터,서울특별시 성동구 왕십리로5길 3,37.5472871,127.0441186
61,성수2가1동 주민센터,서울특별시 성동구 뚝섬로 385-19,37.5455662,127.0272714
62,성수2가3동 주민센터,서울특별시 성동구 광나루로2길 35,37.5497734,127.053245
63,송정동 주민센터,서울특별시 성동구 동일로43길 13,37.5549166,127.069682
64,용답동 주민센터,서울특별시 성동구 용답중앙23길 20,37.563863,127.0548293
65,중곡1동 주민센터,서울특별시 광진구 긴고랑로12길 49,37.5614397,127.0802968
66,중곡2동 주민센터,서울특별시 광진구 능동로 345,37.5376771,127.06928
67,중곡3동 주민센터,서울특별시 광진구 동일로76가길 28,37.5688317,127.0801796
68,중곡4동 주민센터,서울특별시 광진구 긴고랑로 131,37.559077,127.0894815
69,능동 주민센터,서울특별시 광진구 천호대로112길 55,37.5542428,127.0800908
70,구의1동 주민센터,서울특별시 광진구 광나루로36길 56,37.5435491,127.0864008
71,구의2동 주민센터,서울특별시 광진구 천호대로136길 55,37.547771,127.0902816
72,구의3동 주민센터,서울특별시 광진구 강변역로 17,37.5380399,127.0920061
73,광장동 주민센터,서울특별시 광진구 광장로 52,37.5452349,127.0988974
74,자양1동 주민센터,서울특별시 광진구 자양로13길 37,37.5330502,127.0794998
75,자양2동 주민센터,서울특별시 광진구 자양로3가길 26,37.5296488,127.0842557
76,자양3동 주민센터,서울특별시 광진구 뚝섬로 568,37.5338424,127.0728903
77,자양제4동 주민센터,서울특별시 광진구 뚝섬로26길 58,37.5344883,127.0661053
78,화양동 주민센터,서울특별시 광진구 능동로17길 39,37.5467536,127.0714156
79,군자동 주민센터,서울특별시 광진구 군자로 151,37.5519973,127.0713059
80,용신동 주민센터,서울특별시 동대문구 천호대로27길 35,37.5758133,127.03728852649259
81,제기동 주민센터,서울특별시 동대문구 약령시로 71,37.583117,127.0378458
82,전농1동 주민센터,서울특별시 동대문구 서울시립대로9길 21,37.5779625,127.0481235
83,전농2동 주민센터,서울특별시 동대문구 사가정로 137,37.5699527,127.0488074
84,답십리1동 주민센터,서울특별시 동대문구 고미술로 12,37.563476,127.0582719
85,답십리2동 주민센터,서울특별시 동대문구 한천로11길 18,37.5674043,127.0613008
86,장안1동 주민센터,서울특별시 동대문구 한천로18길 52,37.567825,127.066442
87,장안2동 주민센터,서울특별시 동대문구 사가정로 230-1,37.5784903,127.0705968
88,청량리동 주민센터,서울특별시 동대문구 왕산로43다길 5,37.5862577,127.0472758
89,회기동 주민센터,서울특별시 동대문구 회기로25길 12-1,37.5907782,127.05535688436365
90,휘경1동 주민센터,서울특별시 동대문구 외대역동로6길 3,37.5933701,127.0685208
91,휘경2동 주민센터,서울특별시 동대문구 한천로 329,37.5840067,127.0681085
92,이문1동 주민센터,서울특별시 동대문구 외대역동로 114-1,37.5910468,127.0673671
93,이문2동 주민센터,서울특별시 동대문구 신이문로 27-5,37.6038427,127.0664774
94,면목2동 주민센터,서울특별시 중랑구 동일로101길 20-15,37.5897636,127.0790416
95,"면목3,8동 주민센터",서울특별시 중랑구 사가정로51길 48,37.5829594,127.0880821
96,면목4동 주민센터,서울특별시 중랑구 면목로 246,37.5945908,127.0859844
97,면목5동 주민센터,서울특별시 중랑구 동일로 619,37.6000886,127.0793834
98,면목7동 주민센터,서울특별시 중랑구 면목로 298,37.5945908,127.0859844
99,면목본동 주민센터,서울특별시 중랑구 면목로 397,37.587364,127.087499
100,상봉1동 주민센터,서울특별시 중랑구 상봉중앙로1길 6,37.5992868,127.08768581529272
101,상봉2동 주민센터,서울특별시 중랑구 봉우재로 93-5,37.5893617,127.07421
102,중화1동 주민센터,서울특별시 중랑구 동일로134길 17,37.60114675,127.0806413557903
103,중화2동 주민센터,서울특별시 중랑구 봉화산로3길 28,37.6087589,127.0750519
104,묵1동 주민센터,서울특별시 중랑구 공릉로2가길 5,37.6137081,127.0787915
105,묵2동 주민센터,서울특별시 중랑구 동일로157길 29,37.6096085,127.0760267
106,망우3동 주민센터,서울특별시 중랑구 용마산로 461,37.6056885,127.1008639
107,망우본동 주민센터,서울특별시 중랑구 망우로67길 10,37.60056585,127.10150471760895
108,신내1동 주민센터,서울특별시 중랑구 용마산로129나길 35,37.6059303,127.09952856699135
109,신내2동 주민센터,서울특별시 중랑구 봉화산로 190,37.60625615,127.09420877849851
110,성북동 주민센터,서울특별시 성북구 성북로 37,37.5887605,127.0050308
111,돈암1동 주민센터,서울특별시 성북구 정릉로 394,37.6074613,127.0055459
112,돈암2동 주민센터,서울특별시 성북구 흥천사길 7,37.5980185,127.0105689
113,삼선동 주민센터,서울특별시 성북구 보문로 190,37.5908535,127.0146619
114,동선동 주민센터,서울특별시 성북구 동소문로26길 27,37.59398735,127.02043610000001
115,안암동 주민센터,서울특별시 성북구 인촌로 16,37.586034,127.021375
116,보문동 주민센터,서울특별시 성북구 안암로3길 35,37.5798459,127.0234001
117,정릉1동 주민센터,서울특별시 성북구 정릉로38마길 33,37.6014313,127.0166804
118,정릉2동 주민센터,서울특별시 성북구 정릉로26길 1,37.6044694,127.0111539
119,정릉3동 주민센터,서울특별시 성북구 솔샘로1길 6-3,37.6085444,127.003904
120,정릉4동 주민센터,서울특별시 성북구 보국문로 106-1,37.6063255,127.0104128
121,길음1동 주민센터,서울특별시 성북구 길음로 92,37.6146362,127.0165792
122,길음2동 주민센터,서울특별시 성북구 삼양로2길 70,37.6061647,127.0256465
123,종암동 주민센터,서울특별시 성북구 종암로 98-8,37.5919701,127.0365575
124,월곡1동 주민센터,서울특별시 성북구 오패산로 96,37.61056395,127.03576003599989
125,월곡2동 주민센터,서울특별시 성북구 화랑로 152,37.6049647,127.045229
126,장위1동 주민센터,서울특별시 성북구 장위로 61,37.61373,127.03915
127,장위2동 주민센터,서울특별시 성북구 돌곶이로27길 12,37.609865,127.0524123
128,장위3동 주민센터,서울특별시 성북구 한천로 657,37.6167394,127.0570781
129,석관동 주민센터,서울특별시 성북구 화랑로 296,37.6049647,127.045229
130,미아동 주민센터,서울특별시 강북구 솔매로49길 14,37.6270848,127.0270683
131,삼각산동 주민센터,서울특별시 강북구 삼양로19길 102,37.61629165,127.01842428127358
132,삼양동 주민센터,서울특별시 강북구 삼양로 268,37.6273418,127.0183872
133,송중동 주민센터,서울특별시 강북구 오패산로 162,37.6161293,127.0337833
134,송천동 주민센터,서울특별시 강북구 솔샘로 284,37.6183081,127.0238655
135,번1동 주민센터,서울특별시 강북구 덕릉로41길 74,37.6378469,127.02883002824589
136,번2동 주민센터,서울특별시 강북구 한천로 897,37.62518,127.04868
137,번3동 주민센터,서울특별시 강북구 한천로105길 21,37.6251367,127.0448336
138,수유1동 주민센터,서울특별시 강북구 삼양로 299,37.61622,127.02204
139,수유2동 주민센터,서울특별시 강북구 한천로 1117,37.62518,127.04868
140,수유3동 주민센터,서울특별시 강북구 노해로 36,37.6456937,127.0233309
141,우이동 주민센터,서울특별시 강북구 삼양로139길 49,37.6479732,127.0115593
142,인수동 주민센터,서울특별시 강북구 인수봉로 255,37.6414795,127.0106302
143,쌍문1동 주민센터,서울특별시 도봉구 노해로 147,37.647923,127.025877
144,쌍문2동 주민센터,서울특별시 도봉구 방학로3길 117,37.6580005,127.038856
145,쌍문3동 주민센터,서울특별시 도봉구 노해로44길 9,37.6479673,127.0293845
146,쌍문4동 주민센터,서울특별시 도봉구 시루봉로 62-7,37.66307,127.02764
147,방학1동 주민센터,서울특별시 도봉구 방학로2길 27,37.6641126,127.04052
148,방학2동 주민센터,서울특별시 도봉구 시루봉로 226,37.66307,127.02764
149,방학3동 주민센터,서울특별시 도봉구 시루봉로 94,37.65915755,127.02802254517543
150,창1동 주민센터,서울특별시 도봉구 해등로 46,37.6585558,127.0346127
151,창2동 주민센터,서울특별시 도봉구 덕릉로59길 73-3,37.6416389,127.0363754
152,창3동 주민센터,서울특별시 도봉구 덕릉로62길 89,37.6395232,127.0428137
153,창4동 주민센터,서울특별시 도봉구 노해로 390,37.652236849999994,127.05163485814589
154,창5동 주민센터,서울특별시 도봉구 도봉로136나길 20,37.6563472,127.043619
155,도봉1동 주민센터,서울특별시 도봉구 도봉로169나길 22,37.6755559,127.0436147
156,도봉2동 주민센터,서울특별시 도봉구 마들로 668,37.6696587,127.0465179
157,월계1동 주민센터,서울특별시 노원구 석계로 59,37.6149158,127.0647959
158,월계2동 주민센터,서울특별시 노원구 초안산로5길 28,37.6323479,127.0508606
159,월계3동 주민센터,서울특별시 노원구 마들로 57,37.6307063,127.0631762
160,공릉1동 주민센터,서울특별시 노원구 동일로186길 3-24,37.62479985,127.07383330348671
161,공릉2동 주민센터,서울특별시 노원구 노원로1길 68,37.6203639,127.0828298
162,하계1동 주민센터,서울특별시 노원구 노원로 261,37.6584915,127.0646714
163,하계2동 주민센터,서울특별시 노원구 공릉로55길 88,37.631975499999996,127.06795095000001
164,상계10동 주민센터,서울특별시 노원구 노원로 530,37.6584915,127.0646714
165,상계1동 주민센터,서울특별시 노원구 동일로 1697,37.67985835,127.0548906
166,상계2동 주민센터,서울특별시 노원구 상계로23길 17,37.6604728,127.0672426
167,상계3.4동주민센터,서울특별시 노원구 덕릉로 859,37.6729272,127.0832564
168,상계5동 주민센터,서울특별시 노원구 한글비석로 434,37.6643171,127.0666903
169,상계6.7동주민센터,서울특별시 노원구 노원로 429,37.6548557,127.06701600872094
170,상계8동 주민센터,서울특별시 노원구 동일로227길 97,37.66728,127.05394
171,상계9동 주민센터,서울특별시 노원구 한글비석로 487,37.6644903,127.06385565294958
172,중계1동 주민센터,서울특별시 노원구 한글비석로 279,37.652548,127.0774758
173,중계2.3동 주민센터,서울특별시 노원구 노원로17길 56,37.6421309,127.0687063
174,중계4동 주민센터,서울특별시 노원구 덕릉로82길 50,37.6587711,127.078
175,중계본동 주민센터,서울특별시 노원구 중계로 143,37.6462176,127.0816372
176,수색동 주민센터,서울특별시 은평구 은평터널로 27,37.594877,126.91038009409243
177,녹번동 주민센터,서울특별시 은평구 은평로 195,37.5979948,126.9136836
178,불광1동 주민센터,서울특별시 은평구 진흥로15길 10,37.610389,126.93211262696286
179,불광2동 주민센터,서울특별시 은평구 연서로41길 16,37.6263847,126.9272304
180,갈현1동 주민센터,서울특별시 은평구 갈현로 301,37.6236538,126.91666656414473
181,갈현2동 주민센터,서울특별시 은평구 연서로27길 31-6,37.6185062,126.9158164842187
182,구산동 주민센터,서울특별시 은평구 갈현로17길 10,37.6111833,126.9100301
183,대조동 주민센터,서울특별시 은평구 연서로20길 24-3,37.6136854,126.9206302
184,응암1동 주민센터,서울특별시 은평구 백련산로 179,37.5999132,126.926471
185,응암2동 주민센터,서울특별시 은평구 백련산로 100,37.59461935,126.92309587338673
186,응암3동 주민센터,서울특별시 은평구 불광천길 410-17,37.5922353,126.91574998126424
187,역촌동 주민센터,서울특별시 은평구 연서로 59,37.6208433,126.9244467
188,신사1동 주민센터,서울특별시 은평구 은평로2길 2,37.59778255,126.91181576752678
189,신사2동 주민센터,서울특별시 은평구 증산로15길 47,37.5898793,126.9106113
190,증산동 주민센터,서울특별시 은평구 증산서길 89,37.5843584,126.90702314605502
191,진관동 주민센터,서울특별시 은평구 진관2로 31,37.6349044,126.9210617
192,천연동 주민센터,서울특별시 서대문구 성산로 694,37.5666295,126.9246236
193,북아현동 주민센터,서울특별시 서대문구 북아현로 24,37.55943405,126.95699202876715
194,충현동 주민센터,서울특별시 서대문구 북아현로22길 38,37.5647995,126.9547025
195,홍제1동 주민센터,서울특별시 서대문구 통일로 435-1,37.5960059,126.9388009
196,홍제2동 주민센터,서울특별시 서대문구 통일로34길 27,37.5861065,126.9493764
197,홍제3동 주민센터,서울특별시 서대문구 세검정로4길 32,37.5937788,126.9497219
198,신촌동 주민센터,서울특별시 서대문구 이화여대길 92-8,37.5591393,126.9434279
199,연희동 주민센터,서울특별시 서대문구 연희로 189,37.5913488,126.9398535
200,홍은1동 주민센터,서울특별시 서대문구 홍은중앙로 85,37.5988595,126.94717270203958
201,홍은2동 주민센터,서울특별시 서대문구 모래내로 334,37.5801524,126.9341838
202,북가좌1동 주민센터,서울특별시 서대문구 수색로 100-55,37.5733702,126.9115745
203,북가좌2동 주민센터,서울특별시 서대문구 응암로1길 10,37.5814047,126.9087115
204,남가좌1동 주민센터,서울특별시 서대문구 모래내로15길 37,37.5744472,126.9184977
205,남가좌2동 주민센터,서울특별시 서대문구 증가로10길 28,37.5784404,126.9238857
206,공덕동 주민센터,서울특별시 마포구 만리재옛길 84,37.5501763,126.9600556
207,아현동 주민센터,서울특별시 마포구 마포대로7길 18,37.5471157,126.9521891
208,도화동 주민센터,서울특별시 마포구 도화길 37,37.5401656,126.9478744
209,용강동 주민센터,서울특별시 마포구 토정로31길 31,37.5428,126.94372
210,염리동 주민센터,서울특별시 마포구 숭문길 14,37.5553168,126.9465406
211,대흥동 주민센터,서울특별시 마포구 신촌로26길 10,37.5553084,126.9425782
212,신수동 주민센터,서울특별시 마포구 독막로 192,37.5484751,126.9157372
213,서강동 주민센터,서울특별시 마포구 독막로 165,37.5484751,126.9157372
214,서교동 주민센터,서울특별시 마포구 동교로15길 7,37.5557969,126.9142709
215,합정동 주민센터,서울특별시 마포구 동교로8길 58,37.5505137,126.9054768
216,망원1동 주민센터,서울특별시 마포구 포은로6길 10,37.5560495,126.9071099
217,망원2동 주민센터,서울특별시 마포구 방울내로7길 11,37.5617831,126.90143
218,연남동 주민센터,서울특별시 마포구 성미산로29길 17-9,37.565249,126.9226214
219,성산1동 주민센터,서울특별시 마포구 성산로4길 15,37.5633684,126.90789360374097
220,성산2동 주민센터,서울특별시 마포구 월드컵북로30길 22,37.5685917,126.908993283842
221,상암동 주민센터,서울특별시 마포구 매봉산로2길 16,37.5783412,126.89468943891342
222,신월1동 주민센터,서울특별시 양천구 중앙로32길 1,37.51924,126.85754
223,신월2동 주민센터,서울특별시 양천구 목동동로 154,37.5192067,126.8706968
224,신월3동 주민센터,서울특별시 양천구 중앙로 209,37.51514135,126.85480878905096
225,신월4동 주민센터,서울특별시 양천구 은행정로11가길 8,37.5240393,126.8587822
226,신월5동 주민센터,서울특별시 양천구 목동서로 353,37.51706595,126.8644757540225
227,신월6동 주민센터,서울특별시 양천구 목동동로 37,37.5348099,126.8783553
228,신정3동 주민센터,서울특별시 양천구 중앙로 209,37.51514135,126.85480878905096
229,목1동 주민센터,서울특별시 양천구 목동서로 192,37.53037915,126.87115721805797
230,목2동 주민센터,서울특별시 양천구 목동중앙본로 120,37.546126900000004,126.87169819453919
231,목3동 주민센터,서울특별시 양천구 목동중앙남로16나길 55,37.5447128,126.8644592990214
232,목4동 주민센터,서울특별시 양천구 목동중앙로 25,37.5324073,126.8683621
233,목5동 주민센터,서울특별시 양천구 목동서로 41,37.53719715,126.88172965580759
234,신월7동 주민센터,서울특별시 양천구 곰달래로1길 38,37.5325257,126.831595
235,신정1동 주민센터,서울특별시 양천구 중앙로53길 47,37.5262271,126.8483313
236,신정2동 주민센터,서울특별시 양천구 남부순환로54길 5,37.5319091,126.8276744
237,신정4동 주민센터,서울특별시 양천구 화곡로4길 10,37.5371607,126.8291793
238,신정6동 주민센터,서울특별시 양천구 신남3길 6,37.517354,126.86448
239,신정7동 주민센터,서울특별시 양천구 남부순환로70길 16-3,37.5214641,126.8361532
240,염창동 주민센터,서울특별시 강서구 양천로67가길 63,37.5534373,126.8712245
241,등촌1동 주민센터,서울특별시 강서구 공항대로53가길 55,37.5546086,126.8592392
242,등촌2동 주민센터,서울특별시 강서구 등촌로 143,37.5515234,126.864002
243,등촌3동 주민센터,서울특별시 강서구 화곡로63길 96,37.5588691,126.847941
244,우장산동 주민센터,서울특별시 강서구 우현로 34,37.5483601,126.8417581
245,화곡1동 주민센터,서울특별시 강서구 곰달래로 79,37.5304841,126.8415804
246,화곡2동 주민센터,서울특별시 강서구 곰달래로37길 13,37.5328386,126.8549885
247,화곡3동 주민센터,서울특별시 강서구 강서로33가길 17,37.5425305,126.83843448282973
248,화곡4동 주민센터,서울특별시 강서구 곰달래로57가길 26,37.5333278,126.8612649
249,화곡6동 주민센터,서울특별시 강서구 화곡로 312,37.5420589,126.842453
250,화곡8동 주민센터,서울특별시 강서구 곰달래로25길 45,37.5332362,126.8472185
251,화곡본동 주민센터,서울특별시 강서구 초록마을로5길 29,37.5440294,126.84771006119117
252,가양1동 주민센터,서울특별시 강서구 허준로 30,37.56946595,126.84470315975787
253,가양2동 주민센터,서울특별시 강서구 허준로 93,37.5652368,126.8535763
254,가양3동 주민센터,서울특별시 강서구 허준로 202,37.5652368,126.8535763
255,발산1동 주민센터,서울특별시 강서구 강서로47길 54,37.5531474,126.8333072
256,공항동 주민센터,서울특별시 강서구 송정로 45,37.5578196,126.8119134
257,방화1동 주민센터,서울특별시 강서구 방화동로 124-1,37.5674988,126.812119
258,방화2동 주민센터,서울특별시 강서구 개화동로23길 20,37.5667208,126.8067563
259,방화3동 주민센터,서울특별시 강서구 금낭화로24길 5,37.57874435,126.8135407771909
260,신도림동 주민센터,서울특별시 구로구 신도림로 40,37.5073792,126.8794801
261,가리봉동 주민센터,서울특별시 구로구 디지털로26길 5,37.48081,126.89595
262,구로1동 주민센터,서울특별시 구로구 구일로4길 57,37.4918755,126.8760577
263,구로2동 주민센터,서울특별시 구로구 구로동로 141,37.4861657,126.8855372
264,구로3동 주민센터,서울특별시 구로구 디지털로31길 109,37.48740095,126.89039984436944
265,구로4동 주민센터,서울특별시 구로구 구로동로28길 94,37.4915913,126.8891239
266,구로5동 주민센터,서울특별시 구로구 구로중앙로28길 66,37.5007652,126.8867941
267,고척1동 주민센터,서울특별시 구로구 중앙로3길 18-8,37.4990811,126.8617107
268,고척2동 주민센터,서울특별시 구로구 중앙로15길 22,37.5082046,126.8530379
269,개봉1동 주민센터,서울특별시 구로구 경인로33길 51,37.4979691,126.8524264
270,개봉2동 주민센터,서울특별시 구로구 개봉로16가길 17,37.4905437,126.8577851
271,개봉3동 주민센터,서울특별시 구로구 개봉로3길 47-5,37.486637,126.8521901
272,오류1동 주민센터,서울특별시 구로구 경인로 221,37.5013683,126.8785054
273,오류2동 주민센터,서울특별시 구로구 오류로 45,37.488218,126.8397067
274,수궁동 주민센터,서울특별시 구로구 오리로15길 32,37.494002,126.831446
275,가산동 주민센터,서울특별시 금천구 가산로 129,37.471387,126.8983078
276,독산1동 주민센터,서울특별시 금천구 시흥대로123길 11,37.4723043,126.8949927
277,독산2동 주민센터,서울특별시 금천구 범안로 1240,37.4665376,126.8933658
278,독산3동 주민센터,서울특별시 금천구 독산로 317,37.47513505,126.90322736284884
279,독산4동 주민센터,서울특별시 금천구 독산로 232,37.4511974,126.9062688
280,시흥1동 주민센터,서울특별시 금천구 시흥대로58길 36,37.4535184,126.90325504621562
281,시흥2동 주민센터,서울특별시 금천구 금하로 764,37.4496013,126.9144265
282,시흥3동 주민센터,서울특별시 금천구 시흥대로18길 40,37.44025655,126.9057992102459
283,시흥4동 주민센터,서울특별시 금천구 독산로36길 14,37.4610734,126.9096003
284,시흥5동 주민센터,서울특별시 금천구 금하로21길 20,37.4522005,126.9081009
285,영등포본동 주민센터,서울특별시 영등포구 신길로61길 17,37.5144067,126.910022
286,영등포동 주민센터,서울특별시 영등포구 영등포로53길 22,37.5195754,126.9122636
287,여의동 주민센터,서울특별시 영등포구 국제금융로 124,37.5176571,126.93455959949397
288,당산1동 주민센터,서울특별시 영등포구 양산로23길 11,37.5246737,126.897616
289,당산2동 주민센터,서울특별시 영등포구 당산로 235,37.5183839,126.8948726
290,도림동 주민센터,서울특별시 영등포구 도영로7길 10,37.5092232,126.8949478
291,문래동 주민센터,서울특별시 영등포구 문래로28길 15,37.5168505,126.8992168
292,양평1동 주민센터,서울특별시 영등포구 영등포로11길 12,37.5242156,126.8881595
293,양평2동 주민센터,서울특별시 영등포구 양평로20길 8-1,37.5386996,126.8964016
294,신길1동 주민센터,서울특별시 영등포구 영등포로84길 24-5,37.5127629,126.9221459
295,신길3동 주민센터,서울특별시 영등포구 신길로41라길 13-8,37.5077217,126.9076467
296,신길4동 주민센터,서울특별시 영등포구 신길로42길 1,37.5069745,126.9138037
297,신길5동 주민센터,서울특별시 영등포구 도림로 264,37.50160715,126.90524346811046
298,신길6동 주민센터,서울특별시 영등포구 대방천로 169,37.4993739,126.9098518
299,신길7동 주민센터,서울특별시 영등포구 여의대방로43길 10,37.5063831,126.9214518
300,대림1동 주민센터,서울특별시 영등포구 디지털로 441,37.49274,126.90365
301,대림2동 주민센터,서울특별시 영등포구 대림로23길 25,37.4927457,126.8982706
302,대림3동 주민센터,서울특별시 영등포구 대림로 197,37.4982976,126.8980585
303,노량진1동 주민센터,서울특별시 동작구 장승배기로28길 30,37.5123107,126.9420168
304,노량진2동 주민센터,서울특별시 동작구 장승배기로19길 48,37.5083919,126.93736335217895
305,상도1동 주민센터,서울특별시 동작구 상도로53길 9,37.5011882,126.9536242
306,상도2동 주민센터,서울특별시 동작구 상도로 211,37.50545095,126.94230610074963
307,상도3동 주민센터,서울특별시 동작구 성대로2길 11,37.4991155,126.93136741129118
308,상도4동 주민센터,서울특별시 동작구 성대로29길 53,37.4998253,126.9388527
309,흑석동 주민센터,서울특별시 동작구 흑석한강로 11,37.5058049,126.9666400153883
310,사당1동 주민센터,서울특별시 동작구 동작대로17길 28,37.4828484,126.9792285
311,사당2동 주민센터,서울특별시 동작구 동작대로29길 52,37.4918913,126.9766919
312,사당3동 주민센터,서울특별시 동작구 사당로17길 86,37.4867741,126.9713152
313,사당4동 주민센터,서울특별시 동작구 사당로16아길 6,37.4807808,126.9689749
314,사당5동 주민센터,서울특별시 동작구 사당로2가길 219,37.4856628,126.9669792
315,대방동 주민센터,서울특별시 동작구 여의대방로44길 20,37.5092532,126.9284117
316,신대방1동 주민센터,서울특별시 동작구 신대방길 72,37.4881887,126.9101357
317,신대방2동 주민센터,서울특별시 동작구 여의대방로24길 106,37.499102,126.9260285
318,낙성대동 주민센터,서울특별시 관악구 낙성대로4가길 5,37.47627505,126.9584078
319,보라매동 주민센터,서울특별시 관악구 봉천로 279-8,37.4821788,126.950987
320,성현동 주민센터,서울특별시 관악구 구암길 38,37.4894094,126.9482011
321,은천동 주민센터,서울특별시 관악구 봉천로33나길 30,37.48524725,126.9424181539992
322,인헌동 주민센터,서울특별시 관악구 남부순환로246가길 20,37.4751124,126.9652287
323,중앙동 주민센터,서울특별시 관악구 양녕로6다길 7,37.484114,126.94979420474712
324,청룡동 주민센터,서울특별시 관악구 쑥고개로 44,37.47910325,126.94163714999999
325,청림동 주민센터,서울특별시 관악구 관악로40길 39,37.4918207,126.9586072
326,행운동 주민센터,서울특별시 관악구 행운1길 43,37.4806266,126.9570766
327,난곡동 주민센터,서울특별시 관악구 난곡로30길 40,37.4709304,126.9216413
328,난향동 주민센터,서울특별시 관악구 난곡로 67,37.4615331,126.9187322
329,대학동 주민센터,서울특별시 관악구 신림로 111,37.4708216,126.9383512
330,미성동 주민센터,서울특별시 관악구 난곡로 249,37.4761893,126.9155584
331,삼성동 주민센터,서울특별시 관악구 호암로 589,37.4595058,126.9276122
332,서림동 주민센터,서울특별시 관악구 신림로29길 6,37.474958349999994,126.93499916839461
333,서원동 주민센터,서울특별시 관악구 신림로 282,37.4708216,126.9383512
334,신림동 주민센터,서울특별시 관악구 신림동길 14,37.48740505,126.92715331638146
335,신사동 주민센터,서울특별시 관악구 조원로 142,37.4854189,126.9181169
336,신원동 주민센터,서울특별시 관악구 신원로3길 13-6,37.4819063,126.9273435
337,조원동 주민센터,서울특별시 관악구 조원로12길 25,37.4827156,126.9078745
338,남현동 주민센터,서울특별시 관악구 남현1가길 29,37.4742961,126.9774189
339,방배1동 주민센터,서울특별시 서초구 효령로29길 43,37.483853,126.9944125
340,방배2동 주민센터,서울특별시 서초구 청두곶길 36,37.4823647,126.9856137
341,방배3동 주민센터,서울특별시 서초구 방배로10길 10-20,37.4811119,126.9986796
342,방배4동 주민센터,서울특별시 서초구 방배로 173,37.4751703,127.0017707
343,방배본동 주민센터,서울특별시 서초구 동광로19길 38,37.4957394,126.9875352
344,양재2동 주민센터,서울특별시 서초구 강남대로12길 44,37.4705922,127.0412234
345,양재1동 주민센터,서울특별시 서초구 바우뫼로 41,37.4716352,127.0267078
346,반포3동 주민센터,서울특별시 서초구 신반포로23길 78,37.5083279,127.0032639
347,잠원동 주민센터,서울특별시 서초구 나루터로 38,37.5147005,127.0105924
348,반포1동 주민센터,서울특별시 서초구 사평대로 273,37.50508325,127.01339390736628
349,반포2동 주민센터,서울특별시 서초구 신반포로15길 16,37.504572550000006,126.99451027582955
350,반포4동 주민센터,서울특별시 서초구 사평대로28길 70,37.4990959,127.0000948
351,반포본동 주민센터,서울특별시 서초구 신반포로 10,37.5100644,127.0195318
352,서초1동 주민센터,서울특별시 서초구 사임당로 89,37.4927095,127.029035
353,서초2동 주민센터,서울특별시 서초구 서초대로70길 51,37.492058799999995,127.02495739641161
354,서초3동 주민센터,서울특별시 서초구 반포대로10길 10,37.4840597,127.0141351
355,서초4동 주민센터,서울특별시 서초구 서운로26길 3,37.50266565,127.02217307805415
356,내곡동 주민센터,서울특별시 서초구 염곡말길 9,37.4621928,127.0526352
357,역삼1동 주민센터,서울특별시 강남구 역삼로7길 16,37.495394,127.033108
358,역삼2동 주민센터,서울특별시 강남구 도곡로43길 25,37.4960586,127.046966
359,개포1동 주민센터,서울특별시 강남구 개포로 310-17,37.481054,127.0537081
360,개포2동 주민센터,서울특별시 강남구 개포로 511,37.4897742,127.0691197
361,개포4동 주민센터,서울특별시 강남구 개포로38길 12,37.4789985,127.0516566
362,일원2동 주민센터,서울특별시 강남구 개포로 607,37.48774935,127.07083865
363,청담동 주민센터,서울특별시 강남구 압구정로79길 26,37.5263605,127.0537937
364,삼성1동 주민센터,서울특별시 강남구 봉은사로 616,37.514342549999995,127.06254663143731
365,삼성2동 주민센터,서울특별시 강남구 봉은사로 419,37.5111921,127.0459885
366,대치1동 주민센터,서울특별시 강남구 남부순환로391길 19,37.4932911,127.0568027
367,대치2동 주민센터,서울특별시 강남구 영동대로65길 24,37.5023067,127.0642127
368,대치4동 주민센터,서울특별시 강남구 도곡로77길 23,37.5000976,127.0579215
369,신사동 주민센터,서울특별시 강남구 압구정로 128,37.5239801,127.02282734798115
370,논현1동 주민센터,서울특별시 강남구 학동로20길 25,37.5115546,127.0284464
371,논현2동 주민센터,서울특별시 강남구 학동로43길 17,37.5173754,127.0371963
372,압구정동 주민센터,서울특별시 강남구 압구정로33길 48,37.5316035,127.0299449
373,세곡동 주민센터,서울특별시 강남구 밤고개로 286,37.46913105,127.10693047121632
374,일원1동 주민센터,서울특별시 강남구 양재대로55길 14,37.4920557,127.087615
375,일원본동 주민센터,서울특별시 강남구 광평로 126,37.48336815,127.08649439999999
376,수서동 주민센터,서울특별시 강남구 광평로 301-4,37.4824493,127.0780991
377,도곡1동 주민센터,서울특별시 강남구 도곡로18길 57,37.4894218,127.0383343
378,도곡2동 주민센터,서울특별시 강남구 남부순환로378길 34-9,37.486423,127.045433
379,잠실2동 주민센터,서울특별시 송파구 올림픽로 159,37.5119198,127.08851415982878
380,잠실3동 주민센터,서울특별시 송파구 잠실로 51-31,37.5133081,127.09440924277405
381,잠실7동 주민센터,서울특별시 송파구 올림픽로4길 17,37.5068569,127.0746595
382,잠실본동 주민센터,서울특별시 송파구 백제고분로15길 9,37.5067395,127.0855685
383,잠실4동 주민센터,서울특별시 송파구 올림픽로35길 16,37.520123999999996,127.11238217671205
384,잠실6동 주민센터,서울특별시 송파구 올림픽로35길 120,37.5169432,127.1006198
385,풍납1동 주민센터,서울특별시 송파구 천호대로152길 7,37.5382184,127.1219867
386,풍납2동 주민센터,서울특별시 송파구 토성로 64,37.528733,127.116806
387,송파1동 주민센터,서울특별시 송파구 백제고분로42길 5,37.5058895,127.1098693
388,송파2동 주민센터,서울특별시 송파구 송이로 32,37.502328,127.116687
389,석촌동 주민센터,서울특별시 송파구 백제고분로37길 16,37.5041198,127.1040452
390,삼전동 주민센터,서울특별시 송파구 백제고분로 236,37.5027234,127.0925526
391,가락1동 주민센터,서울특별시 송파구 송파대로 345,37.4980968,127.1037991
392,가락2동 주민센터,서울특별시 송파구 중대로20길 6,37.4975793,127.1271081
393,가락본동 주민센터,서울특별시 송파구 송파대로28길 39,37.494596,127.1205972
394,문정1동 주민센터,서울특별시 송파구 동남로 116,37.50542,127.1391
395,문정2동 주민센터,서울특별시 송파구 중대로 16,37.5041995,127.1302592
396,장지동 주민센터,서울특별시 송파구 새말로19길 6,37.4864094,127.1328252
397,위례동 주민센터,서울특별시 송파구 위례광장로 163,37.4742312,127.1434465
398,방이1동 주민센터,서울특별시 송파구 위례성대로16길 22,37.5109882,127.1239088
399,방이2동 주민센터,서울특별시 송파구 백제고분로 495,37.5026982,127.0993482
400,오륜동 주민센터,서울특별시 송파구 양재대로 1232,37.521128,127.1337542
401,오금동 주민센터,서울특별시 송파구 중대로25길 5,37.5033781,127.1286118
402,거여1동 주민센터,서울특별시 송파구 오금로53길 32,37.4959276,127.1412445
403,거여2동 주민센터,서울특별시 송파구 거마로2길 19,37.4935399,127.1468628
404,마천1동 주민센터,서울특별시 송파구 마천로 303,37.4919452,127.15442
405,마천2동 주민센터,서울특별시 송파구 마천로 287,37.4919452,127.15442
406,명일1동 주민센터,서울특별시 강동구 양재대로138길 37,37.549758600000004,127.14599905
407,명일2동 주민센터,서울특별시 강동구 상암로 260,37.5480751,127.1300518
408,고덕1동 주민센터,서울특별시 강동구 양재대로156길 123,37.5563074,127.1488895
409,고덕2동 주민센터,서울특별시 강동구 아리수로78길 43-12,37.5605039,127.1643845
410,상일동 주민센터,서울특별시 강동구 고덕로80길 111,37.5518119,127.1652728
411,길동 주민센터,서울특별시 강동구 명일로 229-1,37.5392251,127.1462154
412,둔촌1동 주민센터,서울특별시 강동구 양재대로84길 31,37.5230921,127.136944
413,둔촌2동 주민센터,서울특별시 강동구 천호대로186길 7,37.5319657,127.142521
414,암사1동 주민센터,서울특별시 강동구 올림픽로98가길 57,37.55127,127.1311585
415,암사2동 주민센터,서울특별시 강동구 상암로3길 28,37.552662,127.1273471
416,암사3동 주민센터,서울특별시 강동구 고덕로 137,37.554981999999995,127.14082390229837
417,성내1동 주민센터,서울특별시 강동구 성내로 13,37.52893,127.12503
418,성내2동 주민센터,서울특별시 강동구 풍성로37가길 62,37.5329049,127.1268052
419,성내3동 주민센터,서울특별시 강동구 강동대로53길 76,37.525568,127.1317124
420,천호1동 주민센터,서울특별시 강동구 구천면로42길 59,37.5427264,127.1373558
421,천호2동 주민센터,서울특별시 강동구 올림픽로 698,37.5385448,127.1234736
422,천호3동 주민센터,서울특별시 강동구 진황도로23길 7,37.5395191,127.1293281
423,강일동 주민센터,서울특별시 강동구 아리수로93길 9-14,37.5649416,127.1739152
424,항동 주민센터,서울특별시 구로구 항동 119-6,37.480214,126.823492
